{"features": [{"geometry": {"coordinates": [2.3895, 48.8492], "type": "Point"}, "id": 2, "properties": {"BEERS": ["Guinness"], "BREWER": "Non", "NAME": "Patrick's Le Ballon Vert", "OSM_ID": 428164786, "TYPE": "bar"}, "type": "Feature"}, {"geometry": {"coordinates": [2.4019, 48.851], "type": "Point"}, "id": 3, "properties": {"BEERS": ["Affligem", "Bi\u00e8re de bourges", "Edelweiss", "Pelforth"], "BREWER": "Non", "NAME": "Les p\u00e8res populaires", "OSM_ID": 493163514, "TYPE": "bar"}, "type": "Feature"}, {"geometry": {"coordinates": [2.3834, 48.8895], "type": "Point"}, "id": 4, "properties": {"BEERS": ["Tripel_karmeliet"], "BREWER": "Non", "NAME": "Mama Kin", "OSM_ID": 568459562, "TYPE": "bar"}, "type": "Feature"}, {"geometry": {"coordinates": [2.3583, 48.8363], "type": "Point"}, "id": 5, "properties": {"BEERS": ["Barb\u00e3r bok", "Faro", "Leffe", "Queue de charrue ambr\u00e9e"], "BREWER": "Non", "NAME": "La F\u00fbt Gueuze", "OSM_ID": 594054765, "TYPE": "bar"}, "type": "Feature"}, {"geometry": {"coordinates": [2.3429, 48.8536], "type": "Point"}, "id": 6, "properties": {"BEERS": ["Guinness"], "BREWER": "Non", "NAME": "La Venus Noire", "OSM_ID": 617928936, "TYPE": "bar"}, "type": "Feature"}, {"geometry": {"coordinates": [2.1977, 48.8896], "type": "Point"}, "id": 7, "properties": {"BEERS": ["Pelforth"], "BREWER": "Non", "NAME": "Le Petit Clement", "OSM_ID": 640616933, "TYPE": "bar"}, "type": "Feature"}, {"geometry": {"coordinates": [2.3895, 48.8504], "type": "Point"}, "id": 8, "properties": {"BEERS": ["Amstel", "H-beer", "Leffe"], "BREWER": "Non", "NAME": "Le Rota", "OSM_ID": 667305411, "TYPE": "bar"}, "type": "Feature"}, {"geometry": {"coordinates": [2.3484, 48.8704], "type": "Point"}, "id": 9, "properties": {"BEERS": ["Leffe"], "BREWER": "Non", "NAME": "Lounge Paradise", "OSM_ID": 694399350, "TYPE": "bar"}, "type": "Feature"}, {"geometry": {"coordinates": [2.3708, 48.8537], "type": "Point"}, "id": 10, "properties": {"BEERS": ["", "Hoegaarden", "Leffe", "Stella artois"], "BREWER": "Non", "NAME": "Bastille bar", "OSM_ID": 1307259134, "TYPE": "bar"}, "type": "Feature"}, {"geometry": {"coordinates": [2.5213, 48.7706], "type": "Point"}, "id": 11, "properties": {"BEERS": ["1664"], "BREWER": "Non", "NAME": null, "OSM_ID": 1509993140, "TYPE": "bar"}, "type": "Feature"}, {"geometry": {"coordinates": [2.3182, 48.8341], "type": "Point"}, "id": 12, "properties": {"BEERS": ["Chouffe", "Tripel_karmeliet"], "BREWER": "Non", "NAME": "Au M\u00e9tro", "OSM_ID": 1598071236, "TYPE": "bar"}, "type": "Feature"}, {"geometry": {"coordinates": [2.3324, 48.8693], "type": "Point"}, "id": 13, "properties": {"BEERS": ["Affligem", "Desperados", "Edelweiss", "Heineken"], "BREWER": "Non", "NAME": "MKP Op\u00e9ra", "OSM_ID": 1685494665, "TYPE": "bar"}, "type": "Feature"}, {"geometry": {"coordinates": [2.253, 48.8215], "type": "Point"}, "id": 14, "properties": {"BEERS": ["Leffe"], "BREWER": "Non", "NAME": "Le Maryland", "OSM_ID": 1692228845, "TYPE": "bar"}, "type": "Feature"}, {"geometry": {"coordinates": [2.489, 48.838], "type": "Point"}, "id": 15, "properties": {"BEERS": ["Chimay", "Chouffe", "Tripel_karmeliet"], "BREWER": "Non", "NAME": "Le Chablis", "OSM_ID": 1744841764, "TYPE": "bar"}, "type": "Feature"}, {"geometry": {"coordinates": [2.239, 48.8827], "type": "Point"}, "id": 16, "properties": {"BEERS": ["Jenlain"], "BREWER": "Non", "NAME": "Le coupole d'argent", "OSM_ID": 1786108265, "TYPE": "bar"}, "type": "Feature"}, {"geometry": {"coordinates": [2.3818, 48.8649], "type": "Point"}, "id": 17, "properties": {"BEERS": ["Brewdog"], "BREWER": "Non", "NAME": "La Fine Mousse", "OSM_ID": 1830661957, "TYPE": "bar"}, "type": "Feature"}, {"geometry": {"coordinates": [2.2884, 48.8329], "type": "Point"}, "id": 18, "properties": {"BEERS": ["1664", "Elephant", "Grimbergen", "Grimbergen_blanche", "Grimbergen_fruits_rouges", "Guinness"], "BREWER": "Non", "NAME": "Dupont Versailles", "OSM_ID": 1835765099, "TYPE": "bar"}, "type": "Feature"}, {"geometry": {"coordinates": [2.3486, 48.849], "type": "Point"}, "id": 19, "properties": {"BEERS": ["Brooklyn lager", "Chouffe"], "BREWER": "Non", "NAME": "La lucha libre", "OSM_ID": 1838552620, "TYPE": "bar"}, "type": "Feature"}, {"geometry": {"coordinates": [2.3429, 48.892], "type": "Point"}, "id": 20, "properties": {"BEERS": ["Chouffe"], "BREWER": "Non", "NAME": "L'Alibi", "OSM_ID": 1869060190, "TYPE": "bar"}, "type": "Feature"}, {"geometry": {"coordinates": [2.4342, 48.8582], "type": "Point"}, "id": 21, "properties": {"BEERS": ["Grolsch", "Guinness", "St. stefanus"], "BREWER": "Non", "NAME": "Le chinois", "OSM_ID": 2072607634, "TYPE": "bar"}, "type": "Feature"}, {"geometry": {"coordinates": [2.2644, 48.842], "type": "Point"}, "id": 22, "properties": {"BEERS": ["Super bock"], "BREWER": "Non", "NAME": "Nela caf\u00e9", "OSM_ID": 2112678904, "TYPE": "bar"}, "type": "Feature"}, {"geometry": {"coordinates": [2.3158, 48.8281], "type": "Point"}, "id": 23, "properties": {"BEERS": ["Yes"], "BREWER": "Non", "NAME": "L'Europe", "OSM_ID": 2149899597, "TYPE": "bar"}, "type": "Feature"}, {"geometry": {"coordinates": [2.3676, 48.8614], "type": "Point"}, "id": 24, "properties": {"BEERS": ["Guinness", "Smithwick's"], "BREWER": "Non", "NAME": "Pop In", "OSM_ID": 2367321705, "TYPE": "bar"}, "type": "Feature"}, {"geometry": {"coordinates": [2.3455, 48.8531], "type": "Point"}, "id": 25, "properties": {"BEERS": ["Blanche de namur", "Delirium tremens", "Konigsb\u00e4cher"], "BREWER": "Non", "NAME": "Ze Bar", "OSM_ID": 2417976078, "TYPE": "bar"}, "type": "Feature"}, {"geometry": {"coordinates": [2.3603, 48.939], "type": "Point"}, "id": 26, "properties": {"BEERS": ["Stella"], "BREWER": "Non", "NAME": "Caf\u00e9 de la Jeunesse", "OSM_ID": 2445512536, "TYPE": "bar"}, "type": "Feature"}, {"geometry": {"coordinates": [2.3559, 48.9339], "type": "Point"}, "id": 27, "properties": {"BEERS": ["Grimbergen"], "BREWER": "Non", "NAME": "Le Pavillon", "OSM_ID": 2445512538, "TYPE": "bar"}, "type": "Feature"}, {"geometry": {"coordinates": [2.3784, 48.8467], "type": "Point"}, "id": 28, "properties": {"BEERS": ["Kronenbourg"], "BREWER": "Non", "NAME": "L'Olivier", "OSM_ID": 2654697181, "TYPE": "bar"}, "type": "Feature"}, {"geometry": {"coordinates": [2.3501, 48.8277], "type": "Point"}, "id": 29, "properties": {"BEERS": ["Chouffe"], "BREWER": "Non", "NAME": "Taverne de la Butte", "OSM_ID": 2699839267, "TYPE": "bar"}, "type": "Feature"}, {"geometry": {"coordinates": [2.3439, 48.8678], "type": "Point"}, "id": 30, "properties": {"BEERS": ["Chouffe", "Guinness"], "BREWER": "Non", "NAME": "Thirsty Mad Cat", "OSM_ID": 2715645721, "TYPE": "bar"}, "type": "Feature"}, {"geometry": {"coordinates": [2.389, 48.8527], "type": "Point"}, "id": 31, "properties": {"BEERS": ["1664", "Affligem", "Kronenbourg"], "BREWER": "Non", "NAME": "Le Dumas", "OSM_ID": 2775842958, "TYPE": "bar"}, "type": "Feature"}, {"geometry": {"coordinates": [2.3528, 48.8703], "type": "Point"}, "id": 32, "properties": {"BEERS": ["Chouffe"], "BREWER": "Non", "NAME": "Le Sully", "OSM_ID": 2778463121, "TYPE": "bar"}, "type": "Feature"}, {"geometry": {"coordinates": [2.3447, 48.8714], "type": "Point"}, "id": 33, "properties": {"BEERS": ["Guinness"], "BREWER": "Non", "NAME": "Sunset", "OSM_ID": 2853546553, "TYPE": "bar"}, "type": "Feature"}, {"geometry": {"coordinates": [2.2839, 48.8655], "type": "Point"}, "id": 34, "properties": {"BEERS": ["Affligem", "Heineken", "Pelforth"], "BREWER": "Non", "NAME": "L'Acapulco", "OSM_ID": 2855862328, "TYPE": "bar"}, "type": "Feature"}, {"geometry": {"coordinates": [2.3756, 48.8553], "type": "Point"}, "id": 35, "properties": {"BEERS": ["Chimay", "Heineken", "Pelforth"], "BREWER": "Non", "NAME": "Dr. Feelgood", "OSM_ID": 2863322351, "TYPE": "bar"}, "type": "Feature"}, {"geometry": {"coordinates": [2.3754, 48.8486], "type": "Point"}, "id": 36, "properties": {"BEERS": ["Carlsberg"], "BREWER": "Non", "NAME": "Le Calbar", "OSM_ID": 2874534278, "TYPE": "bar"}, "type": "Feature"}, {"geometry": {"coordinates": [2.3487, 48.843], "type": "Point"}, "id": 37, "properties": {"BEERS": ["Chouffe"], "BREWER": "Non", "NAME": "Chouff'bar", "OSM_ID": 2875881221, "TYPE": "bar"}, "type": "Feature"}, {"geometry": {"coordinates": [2.384, 48.8469], "type": "Point"}, "id": 38, "properties": {"BEERS": ["Heineken", "Kocher", "Pelforth"], "BREWER": "Non", "NAME": "Oxalis", "OSM_ID": 2876169595, "TYPE": "bar"}, "type": "Feature"}, {"geometry": {"coordinates": [2.3583, 48.8783], "type": "Point"}, "id": 39, "properties": {"BEERS": ["Affligem", "Heineken", "Pelforth", "Saint-omer"], "BREWER": "Non", "NAME": "Au train de vie", "OSM_ID": 2900792405, "TYPE": "bar"}, "type": "Feature"}, {"geometry": {"coordinates": [2.293, 48.8357], "type": "Point"}, "id": 40, "properties": {"BEERS": ["Chouffe", "Tripel_karmeliet"], "BREWER": "Non", "NAME": "Le Comptoir", "OSM_ID": 2974330159, "TYPE": "bar"}, "type": "Feature"}, {"geometry": {"coordinates": [2.3042, 48.8351], "type": "Point"}, "id": 41, "properties": {"BEERS": ["Brooklyn lager", "Chouffe", "Demi de m\u00eal\u00e9e ", "Guinness", "La b\u00eate", "Silver beer", "White mystic"], "BREWER": "Non", "NAME": "Le Comptoir", "OSM_ID": 2974330160, "TYPE": "bar"}, "type": "Feature"}, {"geometry": {"coordinates": [2.3595, 48.8557], "type": "Point"}, "id": 42, "properties": {"BEERS": ["Cuv\u00e9e des trolls", "Kwak", "Tripel_karmeliet"], "BREWER": "Non", "NAME": "Le Rivolux", "OSM_ID": 2997329281, "TYPE": "bar"}, "type": "Feature"}, {"geometry": {"coordinates": [2.3545, 48.8727], "type": "Point"}, "id": 43, "properties": {"BEERS": ["Chouffe"], "BREWER": "Non", "NAME": "Le Ch\u00e2teau d'Eau", "OSM_ID": 3048834230, "TYPE": "bar"}, "type": "Feature"}, {"geometry": {"coordinates": [2.3694, 48.8667], "type": "Point"}, "id": 44, "properties": {"BEERS": ["Tripel karmeliet"], "BREWER": "Non", "NAME": "The Wild Geese", "OSM_ID": 3071528797, "TYPE": "bar"}, "type": "Feature"}, {"geometry": {"coordinates": [2.3686, 48.8584], "type": "Point"}, "id": 45, "properties": {"BEERS": ["Leffe"], "BREWER": "Non", "NAME": "Fauve Paris L'abreuvoir", "OSM_ID": 3112784820, "TYPE": "bar"}, "type": "Feature"}, {"geometry": {"coordinates": [2.3393, 48.8905], "type": "Point"}, "id": 46, "properties": {"BEERS": ["Even more jesus", "Undercurrent", "Violent femme"], "BREWER": "Non", "NAME": "Le Festin Nu", "OSM_ID": 3161142951, "TYPE": "bar"}, "type": "Feature"}, {"geometry": {"coordinates": [2.3005, 48.8419], "type": "Point"}, "id": 47, "properties": {"BEERS": ["Kronenbourg"], "BREWER": "Non", "NAME": "L'Iris", "OSM_ID": 3427251448, "TYPE": "bar"}, "type": "Feature"}, {"geometry": {"coordinates": [2.3498, 48.8707], "type": "Point"}, "id": 48, "properties": {"BEERS": ["Vedett, maredsous"], "BREWER": "Non", "NAME": "Au F\u00fbt et \u00e0 Mesure", "OSM_ID": 3501719701, "TYPE": "bar"}, "type": "Feature"}, {"geometry": {"coordinates": [2.3923, 48.8692], "type": "Point"}, "id": 49, "properties": {"BEERS": ["Cop\u00e8res, saint-st\u00e9fanus, delirium,, barbar, grolsh"], "BREWER": "Non", "NAME": "Le Bouillon St Stef", "OSM_ID": 3518621993, "TYPE": "bar"}, "type": "Feature"}, {"geometry": {"coordinates": [2.3503, 48.8644], "type": "Point"}, "id": 50, "properties": {"BEERS": ["Dark de triomphe", "Ginger twist", "Inseine", "Maison blanche"], "BREWER": "Oui", "NAME": "The Frog & Rosbif", "OSM_ID": 251001752, "TYPE": "pub"}, "type": "Feature"}, {"geometry": {"coordinates": [2.3498, 48.8423], "type": "Point"}, "id": 51, "properties": {"BEERS": ["Tripel karmeliet"], "BREWER": "Non", "NAME": "Le Vieux Ch\u00eane", "OSM_ID": 251474115, "TYPE": "pub"}, "type": "Feature"}, {"geometry": {"coordinates": [2.3472, 48.8474], "type": "Point"}, "id": 52, "properties": {"BEERS": ["Brewdog", "Brewdog punk", "Carolus triple", "Grolsch", "Kasteel rouge", "Page 24 r\u00e9serve blonde hildegarde", "Page brune", "Saint bernardus", "Saint stephanus", "Tripel karmeliet"], "BREWER": "Non", "NAME": "La Tireuse", "OSM_ID": 251474117, "TYPE": "pub"}, "type": "Feature"}, {"geometry": {"coordinates": [2.2881, 48.8647], "type": "Point"}, "id": 53, "properties": {"BEERS": ["Frog natural blonde"], "BREWER": "Oui", "NAME": "Frog XVI", "OSM_ID": 252958952, "TYPE": "pub"}, "type": "Feature"}, {"geometry": {"coordinates": [2.2853, 48.8803], "type": "Point"}, "id": 54, "properties": {"BEERS": ["Guinness"], "BREWER": "Non", "NAME": "James Joyce", "OSM_ID": 252961401, "TYPE": "pub"}, "type": "Feature"}, {"geometry": {"coordinates": [2.1792, 48.8774], "type": "Point"}, "id": 55, "properties": {"BEERS": ["Grimbergen", "Gueuze", "Kriek", "Warsteiner"], "BREWER": "Non", "NAME": "L'Adresse", "OSM_ID": 289076795, "TYPE": "pub"}, "type": "Feature"}, {"geometry": {"coordinates": [2.1805, 48.8773], "type": "Point"}, "id": 56, "properties": {"BEERS": ["Hoegaarden", "Leffe"], "BREWER": "Non", "NAME": "Caf\u00e9 Leffe", "OSM_ID": 289103493, "TYPE": "pub"}, "type": "Feature"}, {"geometry": {"coordinates": [2.3252, 48.8851], "type": "Point"}, "id": 57, "properties": {"BEERS": ["Grolsch", "Guinness"], "BREWER": "Non", "NAME": "Lush", "OSM_ID": 305903405, "TYPE": "pub"}, "type": "Feature"}, {"geometry": {"coordinates": [2.3548, 48.8456], "type": "Point"}, "id": 58, "properties": {"BEERS": ["Chouffe"], "BREWER": "Non", "NAME": "Epsilon", "OSM_ID": 310363590, "TYPE": "pub"}, "type": "Feature"}, {"geometry": {"coordinates": [2.3799, 48.8688], "type": "Point"}, "id": 59, "properties": {"BEERS": ["Carlsberg", "Hoegaarden", "Leffe"], "BREWER": "Non", "NAME": "L'Assassin", "OSM_ID": 418142037, "TYPE": "pub"}, "type": "Feature"}, {"geometry": {"coordinates": [2.388, 48.877], "type": "Point"}, "id": 60, "properties": {"BEERS": ["Leffe"], "BREWER": "Non", "NAME": "L'Escargot", "OSM_ID": 420117472, "TYPE": "pub"}, "type": "Feature"}, {"geometry": {"coordinates": [2.3744, 48.8494], "type": "Point"}, "id": 61, "properties": {"BEERS": ["Guinness"], "BREWER": "Non", "NAME": "Le bar \u00e0 mine", "OSM_ID": 428044663, "TYPE": "pub"}, "type": "Feature"}, {"geometry": {"coordinates": [2.3157, 48.8779], "type": "Point"}, "id": 62, "properties": {"BEERS": ["Guinness"], "BREWER": "Non", "NAME": "Brady's Irish Pub", "OSM_ID": 449554298, "TYPE": "pub"}, "type": "Feature"}, {"geometry": {"coordinates": [2.4403, 48.8446], "type": "Point"}, "id": 63, "properties": {"BEERS": ["Kwak"], "BREWER": "Non", "NAME": "T\u00eate \u00e0 l'envers", "OSM_ID": 452420245, "TYPE": "pub"}, "type": "Feature"}, {"geometry": {"coordinates": [2.5525, 48.8482], "type": "Point"}, "id": 64, "properties": {"BEERS": ["Hoegaarden", "Hoegaarden ros\u00e9e ", "Leffe", "Leffe royale", "Leffe ruby", "Stella artois"], "BREWER": "Non", "NAME": "Le Bureau", "OSM_ID": 457491696, "TYPE": "pub"}, "type": "Feature"}, {"geometry": {"coordinates": [2.3971, 48.8475], "type": "Point"}, "id": 65, "properties": {"BEERS": ["Guinness", "Hoegaarden", "Kilkenny", "Leffe", "Leffe_ruby", "Stella artois"], "BREWER": "Non", "NAME": "Irish Corner", "OSM_ID": 486096218, "TYPE": "pub"}, "type": "Feature"}, {"geometry": {"coordinates": [2.3781, 48.8502], "type": "Point"}, "id": 66, "properties": {"BEERS": ["Barb\u00e3r", "Chimay", "Chouffe", "Cuv\u00e9e des trolls", "Lupulus"], "BREWER": "Non", "NAME": "Le Troll", "OSM_ID": 508588181, "TYPE": "pub"}, "type": "Feature"}, {"geometry": {"coordinates": [2.3418, 48.8483], "type": "Point"}, "id": 67, "properties": {"BEERS": ["Guinness", "Leffe"], "BREWER": "Non", "NAME": "Mad Maker", "OSM_ID": 530896463, "TYPE": "pub"}, "type": "Feature"}, {"geometry": {"coordinates": [2.3768, 48.8309], "type": "Point"}, "id": 68, "properties": {"BEERS": ["Dark de triomphe", "Ginger twist", "Inseine", "Maison blanche", "Parislytic"], "BREWER": "Oui", "NAME": "The Frog & British Library", "OSM_ID": 536574152, "TYPE": "pub"}, "type": "Feature"}, {"geometry": {"coordinates": [2.386, 48.833], "type": "Point"}, "id": 69, "properties": {"BEERS": ["Dark de triomphe", "Ginger twist", "Inseine", "Maison blanche"], "BREWER": "Oui", "NAME": "The Frog at Bercy Village", "OSM_ID": 609212551, "TYPE": "pub"}, "type": "Feature"}, {"geometry": {"coordinates": [2.3497, 48.8574], "type": "Point"}, "id": 70, "properties": {"BEERS": ["Guinness"], "BREWER": "Non", "NAME": "The Green Linnet", "OSM_ID": 624613486, "TYPE": "pub"}, "type": "Feature"}, {"geometry": {"coordinates": [2.3492, 48.8451], "type": "Point"}, "id": 71, "properties": {"BEERS": ["", "Chimay", "Chouffe (la)", "Delirium", "Kwak", "Leffe", "Maredsous", "Tripel karmeliet"], "BREWER": "Non", "NAME": "Le Mayflower", "OSM_ID": 676116665, "TYPE": "pub"}, "type": "Feature"}, {"geometry": {"coordinates": [2.3475, 48.8583], "type": "Point"}, "id": 72, "properties": {"BEERS": ["Chimay"], "BREWER": "Non", "NAME": "Au Trappiste", "OSM_ID": 676860118, "TYPE": "pub"}, "type": "Feature"}, {"geometry": {"coordinates": [2.3476, 48.8592], "type": "Point"}, "id": 73, "properties": {"BEERS": ["Leffe"], "BREWER": "Non", "NAME": "Le Petit Ch\u00e2telet", "OSM_ID": 676860175, "TYPE": "pub"}, "type": "Feature"}, {"geometry": {"coordinates": [2.3528, 48.8433], "type": "Point"}, "id": 74, "properties": {"BEERS": ["Grimbergen", "Guinness", "Tripel_karmeliet"], "BREWER": "Non", "NAME": "The Local", "OSM_ID": 703122472, "TYPE": "pub"}, "type": "Feature"}, {"geometry": {"coordinates": [2.3391, 48.8392], "type": "Point"}, "id": 75, "properties": {"BEERS": ["Kwak", "Saint-bernadus", "Tripel karmeliet"], "BREWER": "Non", "NAME": "Acad\u00e9mie de la Bi\u00e8re", "OSM_ID": 741213238, "TYPE": "pub"}, "type": "Feature"}, {"geometry": {"coordinates": [2.3994, 48.852], "type": "Point"}, "id": 76, "properties": {"BEERS": ["Chimay", "Chouffe", "Tripel_karmeliet"], "BREWER": "Non", "NAME": "Bouillon belge", "OSM_ID": 745086544, "TYPE": "pub"}, "type": "Feature"}, {"geometry": {"coordinates": [2.3707, 48.855], "type": "Point"}, "id": 77, "properties": {"BEERS": ["Saint-omer"], "BREWER": "Non", "NAME": "L\u00eache vin", "OSM_ID": 906036878, "TYPE": "pub"}, "type": "Feature"}, {"geometry": {"coordinates": [2.3686, 48.8815], "type": "Point"}, "id": 78, "properties": {"BEERS": ["Grolsch"], "BREWER": "Non", "NAME": "Le Point Eph\u00e9m\u00e8re", "OSM_ID": 921881553, "TYPE": "pub"}, "type": "Feature"}, {"geometry": {"coordinates": [2.3439, 48.8612], "type": "Point"}, "id": 79, "properties": {"BEERS": ["Akerbeltz_ambr\u00e9e"], "BREWER": "Non", "NAME": "L'Express", "OSM_ID": 1126088147, "TYPE": "pub"}, "type": "Feature"}, {"geometry": {"coordinates": [2.3259, 48.8415], "type": "Point"}, "id": 80, "properties": {"BEERS": ["Leffe", "Leffe ruby"], "BREWER": "Non", "NAME": "Ty jos", "OSM_ID": 1140477414, "TYPE": "pub"}, "type": "Feature"}, {"geometry": {"coordinates": [2.3864, 48.8505], "type": "Point"}, "id": 81, "properties": {"BEERS": ["Guinness"], "BREWER": "Non", "NAME": "Patrick\u2019s Ballon Vert", "OSM_ID": 1224795728, "TYPE": "pub"}, "type": "Feature"}, {"geometry": {"coordinates": [2.3206, 48.8366], "type": "Point"}, "id": 82, "properties": {"BEERS": ["Desperados", "Guinness", "Heineken", "Hoegarden blanche", "La chouffe", "Leffe", "Stella artois", "Superbock", "Tripel karmeliet"], "BREWER": "Non", "NAME": "Osmoz Caf\u00e9", "OSM_ID": 1305927682, "TYPE": "pub"}, "type": "Feature"}, {"geometry": {"coordinates": [2.1265, 48.805], "type": "Point"}, "id": 83, "properties": {"BEERS": ["Guinness"], "BREWER": "Non", "NAME": "O'Paris", "OSM_ID": 1412584442, "TYPE": "pub"}, "type": "Feature"}, {"geometry": {"coordinates": [2.343, 48.871], "type": "Point"}, "id": 84, "properties": {"BEERS": ["Affligem", "Amstel", "Edelweiss", "Fisher ambr\u00e9e", "Heineken"], "BREWER": "Oui", "NAME": "French Beer Factory", "OSM_ID": 1465462980, "TYPE": "pub"}, "type": "Feature"}, {"geometry": {"coordinates": [2.344, 48.8711], "type": "Point"}, "id": 85, "properties": {"BEERS": ["Guinness"], "BREWER": "Non", "NAME": "Corcoran's", "OSM_ID": 1486313953, "TYPE": "pub"}, "type": "Feature"}, {"geometry": {"coordinates": [2.3449, 48.871], "type": "Point"}, "id": 86, "properties": {"BEERS": ["Carlsberg", "Guinness", "Heineken", "La b\u00eate", "La chouffe", "Leffe", "Warsteiner"], "BREWER": "Non", "NAME": "James Hetfeeld's Pub", "OSM_ID": 1486313987, "TYPE": "pub"}, "type": "Feature"}, {"geometry": {"coordinates": [2.3374, 48.8519], "type": "Point"}, "id": 87, "properties": {"BEERS": ["Leffe"], "BREWER": "Non", "NAME": "Les Caves Alli\u00e9es", "OSM_ID": 1778519709, "TYPE": "pub"}, "type": "Feature"}, {"geometry": {"coordinates": [2.35, 48.8277], "type": "Point"}, "id": 88, "properties": {"BEERS": ["Chimay", "Chouffe", "Guinness", "Leffe", "Tripel_karmeliet"], "BREWER": "Non", "NAME": "Chez Michel", "OSM_ID": 1800349948, "TYPE": "pub"}, "type": "Feature"}, {"geometry": {"coordinates": [2.3549, 48.845], "type": "Point"}, "id": 89, "properties": {"BEERS": ["Affligem"], "BREWER": "Non", "NAME": "Les Ar\u00e8nes", "OSM_ID": 1813684597, "TYPE": "pub"}, "type": "Feature"}, {"geometry": {"coordinates": [2.3464, 48.8579], "type": "Point"}, "id": 90, "properties": {"BEERS": ["Carlsberg", "Grimbergen", "Guinness", "Kronenbourg"], "BREWER": "Non", "NAME": "Le Dernier Bar Avant la Fin du Monde", "OSM_ID": 1824374964, "TYPE": "pub"}, "type": "Feature"}, {"geometry": {"coordinates": [2.3467, 48.8525], "type": "Point"}, "id": 91, "properties": {"BEERS": ["Guinness", "Stella artois"], "BREWER": "Non", "NAME": "Shywawa", "OSM_ID": 1905655546, "TYPE": "pub"}, "type": "Feature"}, {"geometry": {"coordinates": [2.4177, 48.8413], "type": "Point"}, "id": 92, "properties": {"BEERS": ["3 monts"], "BREWER": "Non", "NAME": "Caf\u00e9 du Lac", "OSM_ID": 2011451022, "TYPE": "pub"}, "type": "Feature"}, {"geometry": {"coordinates": [2.3261, 48.8428], "type": "Point"}, "id": 93, "properties": {"BEERS": ["Blanche de bruxelles", "Carlsberg", "Carolus d'or", "Chouffe", "Cuv\u00e9e des trolls", "Framboise_lindemans", "Guinness", "John martin's", "Leffe_royale", "Magner's", "Maredsous", "Pilsner urquell", "Trappe_triple"], "BREWER": "Non", "NAME": "Le Falstaff", "OSM_ID": 2086399144, "TYPE": "pub"}, "type": "Feature"}, {"geometry": {"coordinates": [2.3477, 48.8509], "type": "Point"}, "id": 94, "properties": {"BEERS": ["Blondinette"], "BREWER": "Non", "NAME": "Le Bistrot des Artistes", "OSM_ID": 2293740288, "TYPE": "pub"}, "type": "Feature"}, {"geometry": {"coordinates": [2.3539, 48.8458], "type": "Point"}, "id": 95, "properties": {"BEERS": ["Guinness"], "BREWER": "Non", "NAME": "Finnegan's Wake", "OSM_ID": 2298160176, "TYPE": "pub"}, "type": "Feature"}, {"geometry": {"coordinates": [2.3492, 48.8453], "type": "Point"}, "id": 96, "properties": {"BEERS": ["Grimbergen", "Guinness", "Heineken", "Kronenbourg"], "BREWER": "Non", "NAME": "L'antidote", "OSM_ID": 2355778353, "TYPE": "pub"}, "type": "Feature"}, {"geometry": {"coordinates": [2.3492, 48.8616], "type": "Point"}, "id": 97, "properties": {"BEERS": ["Chouffe"], "BREWER": "Non", "NAME": "Hall's Beer Tavern", "OSM_ID": 2394065566, "TYPE": "pub"}, "type": "Feature"}, {"geometry": {"coordinates": [2.3489, 48.861], "type": "Point"}, "id": 98, "properties": {"BEERS": ["Carlsberg", "Guinness"], "BREWER": "Non", "NAME": "Mc Brides", "OSM_ID": 2394065575, "TYPE": "pub"}, "type": "Feature"}, {"geometry": {"coordinates": [2.4315, 48.8964], "type": "Point"}, "id": 99, "properties": {"BEERS": ["Heineken"], "BREWER": "Non", "NAME": "Chez Anna", "OSM_ID": 2496809985, "TYPE": "pub"}, "type": "Feature"}, {"geometry": {"coordinates": [2.3475, 48.8304], "type": "Point"}, "id": 100, "properties": {"BEERS": ["Duvel", "Guinness"], "BREWER": "Non", "NAME": "Le Havane", "OSM_ID": 2499743219, "TYPE": "pub"}, "type": "Feature"}, {"geometry": {"coordinates": [2.3436, 48.8539], "type": "Point"}, "id": 101, "properties": {"BEERS": ["Guinness"], "BREWER": "Non", "NAME": "Galway Irish Pub", "OSM_ID": 2549246541, "TYPE": "pub"}, "type": "Feature"}, {"geometry": {"coordinates": [2.2931, 48.8504], "type": "Point"}, "id": 102, "properties": {"BEERS": ["1664", "Chouffe", "Delirium tremens"], "BREWER": "Non", "NAME": "Au dernier M\u00e9tro", "OSM_ID": 2556489497, "TYPE": "pub"}, "type": "Feature"}, {"geometry": {"coordinates": [2.2533, 48.8215], "type": "Point"}, "id": 103, "properties": {"BEERS": ["Leffe"], "BREWER": "Non", "NAME": "Le Maryland", "OSM_ID": 2583431160, "TYPE": "pub"}, "type": "Feature"}, {"geometry": {"coordinates": [2.3088, 48.8597], "type": "Point"}, "id": 104, "properties": {"BEERS": ["Affligem", "Guinness", "Wel scotch"], "BREWER": "Non", "NAME": "O'Brien's", "OSM_ID": 2626551371, "TYPE": "pub"}, "type": "Feature"}, {"geometry": {"coordinates": [2.3499, 48.8443], "type": "Point"}, "id": 105, "properties": {"BEERS": ["Chouffe (la)", "Grimbergen", "Guinness", "Leffe"], "BREWER": "Non", "NAME": "The Wall", "OSM_ID": 2788471698, "TYPE": "pub"}, "type": "Feature"}, {"geometry": {"coordinates": [2.3542, 48.8747], "type": "Point"}, "id": 106, "properties": {"BEERS": ["Maredsous", "Tripel_karmeliet"], "BREWER": "Non", "NAME": "Paradis 13", "OSM_ID": 3058756075, "TYPE": "pub"}, "type": "Feature"}, {"geometry": {"coordinates": [2.2958, 48.8439], "type": "Point"}, "id": 107, "properties": {"BEERS": ["Affligem", "Edelweiss", "Pelforth", "Strongbow"], "BREWER": "Non", "NAME": "Celtic Corner", "OSM_ID": 3427068557, "TYPE": "pub"}, "type": "Feature"}, {"geometry": {"coordinates": [2.3346, 48.8523], "type": "Point"}, "id": 108, "properties": {"BEERS": ["Dark de triomphe", "Ginger twist", "Inseine", "Maison blanche"], "BREWER": "Oui", "NAME": "The Frog & Princess", "OSM_ID": 3520483492, "TYPE": "pub"}, "type": "Feature"}, {"geometry": {"coordinates": [2.3683, 48.8539], "type": "Point"}, "id": 109, "properties": {"BEERS": ["Dark de triomphe", "Ginger twist", "Inseine", "Maison blanche"], "BREWER": "Oui", "NAME": "The Frog Revolution", "OSM_ID": 3520535766, "TYPE": "pub"}, "type": "Feature"}], "type": "FeatureCollection"}