{"features": [{"geometry": {"coordinates": [2.3508801, 48.8616762], "type": "Point"}, "id": 1, "properties": {"ADDRESS": "Demory Paris, Paris, France", "ADR_COUNTRY": "FRANCE", "NAME": "Demory Paris"}, "type": "Feature"}, {"geometry": {"coordinates": [2.3720668, 48.8459544], "type": "Point"}, "id": 2, "properties": {"ADDRESS": "L'Express de Lyon, Paris, France", "ADR_COUNTRY": "FRANCE", "NAME": "L'Express de Lyon"}, "type": "Feature"}, {"geometry": {"coordinates": [2.3817815, 48.8648511], "type": "Point"}, "id": 3, "properties": {"ADDRESS": "La Fine Mousse, Paris, France", "ADR_COUNTRY": "FRANCE", "NAME": "La Fine Mousse"}, "type": "Feature"}, {"geometry": {"coordinates": [2.3392991, 48.8904696], "type": "Point"}, "id": 4, "properties": {"ADDRESS": "Le Festin Nu, Paris, France", "ADR_COUNTRY": "FRANCE", "NAME": "Le Festin Nu"}, "type": "Feature"}, {"geometry": {"coordinates": [2.3469515, 48.8922517], "type": "Point"}, "id": 5, "properties": {"ADDRESS": "Le Supercoin, Paris, France", "ADR_COUNTRY": "FRANCE", "NAME": "Le Supercoin"}, "type": "Feature"}, {"geometry": {"coordinates": [2.3854927, 48.8666813], "type": "Point"}, "id": 6, "properties": {"ADDRESS": "Les Trois 8, Paris, France", "ADR_COUNTRY": "FRANCE", "NAME": "Les Trois 8"}, "type": "Feature"}, {"geometry": {"coordinates": [2.3477426, 48.8885837], "type": "Point"}, "id": 7, "properties": {"ADDRESS": "A la bi\u00e8re comme \u00e0 la bi\u00e8re, Paris, France", "ADR_COUNTRY": "FRANCE", "NAME": "A la bi\u00e8re comme \u00e0 la bi\u00e8re"}, "type": "Feature"}, {"geometry": {"coordinates": [2.3142441, 48.8842039], "type": "Point"}, "id": 8, "properties": {"ADDRESS": "Bi\u00e8res cultes, Paris, France", "ADR_COUNTRY": "FRANCE", "NAME": "Bi\u00e8res cultes"}, "type": "Feature"}, {"geometry": {"coordinates": [2.3549628, 48.8769677], "type": "Point"}, "id": 9, "properties": {"ADDRESS": "Bierissime, Paris, France", "ADR_COUNTRY": "FRANCE", "NAME": "Bierissime"}, "type": "Feature"}, {"geometry": {"coordinates": [2.3469307, 48.8254475], "type": "Point"}, "id": 10, "properties": {"ADDRESS": "Bi\u00e9rocratie, Paris, France", "ADR_COUNTRY": "FRANCE", "NAME": "Bi\u00e9rocratie"}, "type": "Feature"}, {"geometry": {"coordinates": [2.3485399, 48.8429926], "type": "Point"}, "id": 11, "properties": {"ADDRESS": "Brewberry, Paris, France", "ADR_COUNTRY": "FRANCE", "NAME": "Brewberry"}, "type": "Feature"}, {"geometry": {"coordinates": [2.3161209, 48.8331466], "type": "Point"}, "id": 12, "properties": {"ADDRESS": "Chop'in, Paris, France", "ADR_COUNTRY": "FRANCE", "NAME": "Chop'in"}, "type": "Feature"}, {"geometry": {"coordinates": [2.3504412, 48.861036], "type": "Point"}, "id": 13, "properties": {"ADDRESS": "La Cave \u00e0 Bulles, Paris, France", "ADR_COUNTRY": "FRANCE", "NAME": "La Cave \u00e0 Bulles"}, "type": "Feature"}, {"geometry": {"coordinates": [2.20768459267877, 48.65929375], "type": "Point"}, "id": 14, "properties": {"ADDRESS": "Brasserie de Marcoussis, Marcoussis, France", "ADR_COUNTRY": "FRANCE", "NAME": "Brasserie de Marcoussis"}, "type": "Feature"}, {"geometry": {"coordinates": [2.3524019, 48.8851214], "type": "Point"}, "id": 15, "properties": {"ADDRESS": "Brasserie de la Goutte d'or, Paris, France", "ADR_COUNTRY": "FRANCE", "NAME": "Brasserie de la Goutte d'or"}, "type": "Feature"}, {"geometry": {"coordinates": [2.02481673712585, 48.6136866], "type": "Point"}, "id": 16, "properties": {"ADDRESS": "Brasserie de la Vall\u00e9e de Chevreuse, Bonnelles, France", "ADR_COUNTRY": "FRANCE", "NAME": "Brasserie de la Vall\u00e9e de Chevreuse"}, "type": "Feature"}, {"geometry": {"coordinates": [2.9713299, 48.2089874], "type": "Point"}, "id": 17, "properties": {"ADDRESS": "Crazy Hops, Vaux-Sur-Lunain, France", "ADR_COUNTRY": "FRANCE", "NAME": "Crazy Hops"}, "type": "Feature"}, {"geometry": {"coordinates": [2.4236094, 48.858741], "type": "Point"}, "id": 18, "properties": {"ADDRESS": "Deck & Donohue, France", "ADR_COUNTRY": "FRANCE", "NAME": "Deck & Donohue"}, "type": "Feature"}, {"geometry": {"coordinates": [1.9484292, 48.8415939], "type": "Point"}, "id": 19, "properties": {"ADDRESS": "Distrikt Beer, Thiverval-Grignon, France", "ADR_COUNTRY": "FRANCE", "NAME": "Distrikt Beer"}, "type": "Feature"}, {"geometry": {"coordinates": [2.3572323, 48.8445537], "type": "Point"}, "id": 20, "properties": {"ADDRESS": "La Baleine, Paris, France", "ADR_COUNTRY": "FRANCE", "NAME": "La Baleine"}, "type": "Feature"}, {"geometry": {"coordinates": [2.46124652851309, 48.8643858], "type": "Point"}, "id": 21, "properties": {"ADDRESS": "La Montreuilloise, Montreuil, France", "ADR_COUNTRY": "FRANCE", "NAME": "La Montreuilloise"}, "type": "Feature"}, {"geometry": {"coordinates": [2.292092, 48.892789], "type": "Point"}, "id": 22, "properties": {"ADDRESS": "Les Brasseurs du Grand Paris, Levallois-Perret, France", "ADR_COUNTRY": "FRANCE", "NAME": "Les Brasseurs du Grand Paris"}, "type": "Feature"}, {"geometry": {"coordinates": [2.5139525, 48.6909231], "type": "Point"}, "id": 23, "properties": {"ADDRESS": "34, RUE de la For\u00eat, 91860 Epinay sous S\u00e9nart, FRANCE", "ADR_COUNTRY": "FRANCE", "NAME": "Outland"}, "type": "Feature"}, {"geometry": {"coordinates": [2.5125796, 48.6886878], "type": "Point"}, "id": 24, "properties": {"ADDRESS": "Parisis, Epinay sous S\u00e9nart, France", "ADR_COUNTRY": "FRANCE", "NAME": "Parisis"}, "type": "Feature"}, {"geometry": {"coordinates": [2.3236939, 48.8905121], "type": "Point"}, "id": 25, "properties": {"ADDRESS": "DBI, Paris, France", "ADR_COUNTRY": "FRANCE", "NAME": "DBI"}, "type": "Feature"}, {"geometry": {"coordinates": [2.3421393, 48.8731482], "type": "Point"}, "id": 26, "properties": {"ADDRESS": "Enolia - 32 Via dei Birrai, Paris, France", "ADR_COUNTRY": "FRANCE", "NAME": "Enolia - 32 Via dei Birrai"}, "type": "Feature"}], "type": "FeatureCollection"}